currently_testing,site,water_body,borough_state,neighborhood_town,latitude,longitude,last_sampled,district_council_number,2021_lab_analysis_by:,closest_tide_area,closest_tide_Name,closest_tide_Id,closest_tide_Lat,closest_tide_Lon,closest_tide_Predictions,closest_tide_dist
TRUE,"Bronx Kill, east end",Bronx Kill,Manhattan,Randalls Island,40.797291,-73.916026,2022,8,NA,East River,Port Morris (Stony Point),8518639,40.8017,-73.9067,Harmonic,0.9255260093484052
TRUE,"Bronx Kill, west end",Bronx Kill,Manhattan,Randalls Island,40.801921,-73.924084,2022,8,NA,East River,"Harlem River, Randalls Island",8518643,40.8,-73.9283,Harmonic,0.41420016157088263
FALSE,"Bronx River, Bronx Botanical Gardens",Bronx River,Bronx,Bronx Park,40.862411,-73.874364,2015,15,NA,Hudson River,"Spuyten Duyvil Creek ent., N.Y.",8518903,40.8783,-73.925,Subordinate,4.6097319024035635
TRUE,"Bronx River, Hunts Point Riverside Park",Bronx River,Bronx,Hunts Point,40.8178447,-73.881072,2022,17,Bronx River Alliance,East River,Hunts Point,8518621,40.8,-73.8733,Subordinate,2.0892754490566845
TRUE,"Bronx River, Soundview Park, HP009 CSO",Bronx River,Bronx,Clason Point,40.8144,-73.8708,2022,18,Bronx River Alliance,East River,Hunts Point,8518621,40.8,-73.8733,Subordinate,1.6149727453554614
TRUE,"Bronx River, Soundview Park (mouth)",Bronx River,Bronx,Clason Point,40.8097,-73.8682,2022,18,Bronx River Alliance,East River,Hunts Point,8518621,40.8,-73.8733,Subordinate,1.1608698767602121
TRUE,"Bronx River, Starlight Park, North Dock",Bronx River,Bronx,Soundview,40.832385,-73.882821,2022,17,Bronx River Alliance,East River,Hunts Point,8518621,40.8,-73.8733,Subordinate,3.689106438911801
FALSE,"Bronx River, Starlight Park, south of dam",Bronx River,Bronx,Soundview,40.8321416,-73.882928,2015,17,NA,East River,Hunts Point,8518621,40.8,-73.8733,Subordinate,3.6646729531680244
TRUE,"Buttermilk Channel, Pier 101 (Governors Island)",Buttermilk Channel,Manhattan,Governors Island,40.691375,-74.012532,2022,1,Billion Oyster Project's Williamsburg Field Station,New York Harbor,NEW YORK (The Battery),8518750,40.7006,-74.0142,Harmonic,1.0353671850045252
TRUE,"Buttermilk Channel, Valentino Pier",Buttermilk Channel,Brooklyn,Red Hook,40.678574,-74.018372,2022,38,Billion Oyster Project's Williamsburg Field Station,New York Harbor,Gowanus Bay,8517921,40.665,-74.0133,Subordinate,1.5688024166429793
TRUE,"Coney Island Creek, Calvert Vaux Beach",Coney Island Creek,Brooklyn,Gravesend,40.5835405,-73.9927194,2023,47,NA,New York Harbor,"Norton Point, Gravesend Bay",8517811,40.59,-73.9983,Subordinate,0.8590556245340882
FALSE,"Coney Island Creek, Calvert Vaux Park",Coney Island Creek,Brooklyn,Gravesend,40.5844306,-73.990388,2020,47,NA,New York Harbor,"Norton Point, Gravesend Bay",8517811,40.59,-73.9983,Subordinate,0.9109866439200854
TRUE,"Coney Island Creek, Kaiser Park",Coney Island Creek,Brooklyn,Gravesend,40.5810247,-73.997941,2022,47,Interstate Environmental Commission,New York Harbor,"Norton Point, Gravesend Bay",8517811,40.59,-73.9983,Subordinate,0.9984681632140486
FALSE,"Coney Island Creek, Shell Road (head of creek)",Coney Island Creek,Brooklyn,Gravesend,40.5825464,-73.974837,2019,47,NA,New York Harbor,Coney Island,8517741,40.57,-73.9833,Subordinate,1.5675379151355384
FALSE,"Coney Island Creek, West 21st Street",Coney Island Creek,Brooklyn,Coney Island,40.5791505,-73.98747,2019,47,NA,New York Harbor,Coney Island,8517741,40.57,-73.9833,Subordinate,1.0767197885118487
FALSE,"East River, Anable Basin",East River,Queens,Hunters Point,40.748051,-73.954628,2021,26,Billion Oyster Project's Williamsburg Field Station,East River,"Hunters Point, Newtown Creek",8517673,40.74,-73.9617,Subordinate,1.075356472899843
TRUE,"East River, Brooklyn Bridge Beach (Manhattan)",East River,Manhattan,Seaport,40.706887,-74.001142,2022,1,Billion Oyster Project's Williamsburg Field Station,East River,Brooklyn Bridge,8517847,40.7033,-73.995,Harmonic,0.6535564740940517
TRUE,"East River, Bushwick Inlet",East River,Brooklyn,Greenpoint,40.7252056,-73.959234,2022,33,Billion Oyster Project's Williamsburg Field Station,East River,"Hunters Point, Newtown Creek",8517673,40.74,-73.9617,Subordinate,1.6581326220718189
TRUE,"East River, Bushwick Inlet Park Beach",East River,Brooklyn,Williamsburg,40.723181,-73.962509,2022,33,Billion Oyster Project's Williamsburg Field Station,East River,Williamsburg Bridge,8518699,40.7117,-73.9683,Harmonic,1.3667412234739014
TRUE,"East River, Dumbo Cove",East River,Brooklyn,Dumbo,40.7044059,-73.990526,2022,33,St. Francis College,East River,Brooklyn Bridge,8517847,40.7033,-73.995,Harmonic,0.39668113527687376
TRUE,"East River, Gantry State Park",East River,Queens,Hunters Point,40.743849,-73.960111,2022,26,Billion Oyster Project's Williamsburg Field Station,East River,"Hunters Point, Newtown Creek",8517673,40.74,-73.9617,Subordinate,0.44843711788865326
TRUE,"East River, Grand Ferry Park",East River,Brooklyn,Williamsburg,40.7168567,-73.967177,2022,33,Billion Oyster Project's Williamsburg Field Station,East River,Williamsburg Bridge,8518699,40.7117,-73.9683,Harmonic,0.5811581359529823
FALSE,"East River, Hallets Cove",East River,Queens,Astoria,40.769516,-73.935593,2022,26,Billion Oyster Project's Williamsburg Field Station,East River,"Horns Hook, East 90th Street",8518668,40.7767,-73.9417,Harmonic,0.9500434422085215
FALSE,"East River, Hammond Cove (HC)",East River,Bronx,Throgs Neck,40.81012,-73.80232,2021,13,SUNY Maritime Marine Environmental Science lab,"Long Island Sound, north side","Throgs Neck, Fort Schuyler",8518526,40.805,-73.795,Harmonic,0.8388575425160645
TRUE,"East River, Hermon A. MacNeil Park",East River,Queens,College Point,40.793278,-73.848917,2022,19,NA,East River,"College Point, Flushing Bay",8517276,40.7833,-73.8567,Subordinate,1.2885413401855743
TRUE,"East River, India Street",East River,Brooklyn,Greenpoint,40.73157,-73.96176,2023,33,NA,East River,"Hunters Point, Newtown Creek",8517673,40.74,-73.9617,Subordinate,0.9373868633814222
TRUE,"East River, Marsha P Johnson State Park",East River,Brooklyn,Williamsburg,40.72191,-73.96301,2023,33,NA,East River,Williamsburg Bridge,8518699,40.7117,-73.9683,Harmonic,1.2197041398283697
TRUE,"East River, North 3rd Street",East River,Brooklyn,Williamsburg,40.718943,-73.965741,2022,33,Billion Oyster Project's Williamsburg Field Station,East River,Williamsburg Bridge,8518699,40.7117,-73.9683,Harmonic,0.8337630550806917
FALSE,"East River, Pier 1 (Brooklyn Bridge Park)",East River,Brooklyn,Brooklyn Heights,40.700789,-73.996922,2013,33,NA,East River,Brooklyn Bridge,8517847,40.7033,-73.995,Harmonic,0.32281460908145665
TRUE,"East River, Pier 2 Kayak Dock (Brooklyn Bridge Park)",East River,Brooklyn,Brooklyn Heights,40.699967,-73.99807,2022,33,St. Francis College,East River,Brooklyn Bridge,8517847,40.7033,-73.995,Harmonic,0.4520282495211636
TRUE,"East River, Pier 4 Beach (Brooklyn Bridge Park)",East River,Brooklyn,Brooklyn Heights,40.6968031,-73.99888,2022,33,St. Francis College,East River,Brooklyn Bridge,8517847,40.7033,-73.995,Harmonic,0.7930192558317518
TRUE,"East River, Pier 35 (+POOL), Mid-Pier",East River,Manhattan,Lower East Side,40.709865,-73.988629,2023,1,Billion Oyster Project's Williamsburg Field Station,East River,Brooklyn Bridge,8517847,40.7033,-73.995,Harmonic,0.9062504368200164
TRUE,"East River, Pier 35 (+POOL), End-Pier",East River,Manhattan,Lower East Side,40.709208,-73.988505,2023,1,NA,East River,Brooklyn Bridge,8517847,40.7033,-73.995,Harmonic,0.8551641700308042
FALSE,"East River, Pier 42/Jackson Street",East River,Manhattan,Lower East Side,40.7103,-73.980614,2017,2,NA,East River,"Wallabout Bay, Brooklyn Navy Yard",8517732,40.7067,-73.975,Subordinate,0.6198090114142968
FALSE,"East River, South 3rd Street/Domino Park",East River,Brooklyn,Williamsburg,40.7142915,-73.968192,2019,33,NA,East River,Williamsburg Bridge,8518699,40.7117,-73.9683,Harmonic,0.28830538848431725
TRUE,"East River, South 5th Street/Domino Park",East River,Brooklyn,Williamsburg,40.7130241,-73.968714,2022,33,Billion Oyster Project's Williamsburg Field Station,East River,Williamsburg Bridge,8518699,40.7117,-73.9683,Harmonic,0.15131162455808214
FALSE,"East River, Stuyvesant Cove",East River,Manhattan,Kips Bay,40.7333646,-73.973866,2020,4,NA,East River,"Hunters Point, Newtown Creek",8517673,40.74,-73.9617,Subordinate,1.262966277877529
FALSE,"East River, SUNY Maritime Campus Entrance (IT)",East River,Bronx,Throgs Neck,40.8091363,-73.802703,2021,13,SUNY Maritime Marine Environmental Science lab,"Long Island Sound, north side","Throgs Neck, Fort Schuyler",8518526,40.805,-73.795,Harmonic,0.7948986706097011
FALSE,"East River, SUNY Maritime Waterfront Center (MAR)",East River,Bronx,Throgs Neck,40.8048868,-73.794356,2021,13,SUNY Maritime Marine Environmental Science lab,"Long Island Sound, north side","Throgs Neck, Fort Schuyler",8518526,40.805,-73.795,Harmonic,0.055646343811625164
TRUE,"East River, Wallabout Channel (Brooklyn Navy Yard)",East River,Brooklyn,Brooklyn Navy Yard,40.7055253,-73.970263,2022,33,Billion Oyster Project's Williamsburg Field Station,East River,"Wallabout Bay, Brooklyn Navy Yard",8517732,40.7067,-73.975,Subordinate,0.4201176534047152
TRUE,"East River, WNYC Transmitter Park",East River,Brooklyn,Greenpoint,40.730086,-73.961404,2023,33,NA,East River,"Hunters Point, Newtown Creek",8517673,40.74,-73.9617,Subordinate,1.10266858063406
TRUE,"Flushing Bay, 28th Avenue (Big Rock Beach)",Flushing Bay,Queens,College Point,40.771964,-73.85035,2022,19,Queens College,East River,"Worlds Fair Marina, Flushing Bay",8517251,40.761,-73.8504,Harmonic,1.2191484476501977
TRUE,"Flushing Bay, World's Fair Marina Boat Ramp",Flushing Bay,Queens,Elmhurst,40.7634239,-73.843532,2022,21,Queens College,East River,"Worlds Fair Marina, Flushing Bay",8517251,40.761,-73.8504,Harmonic,0.638147500510855
TRUE,"Flushing Bay, World's Fair Marina Pier 1 East",Flushing Bay,Queens,Elmhurst,40.760445,-73.849571,2022,21,Queens College,East River,"Worlds Fair Marina, Flushing Bay",8517251,40.761,-73.8504,Harmonic,0.09318563703686913
FALSE,"Flushing Bay, World's Fair Marina Pier 1 West",Flushing Bay,Queens,Elmhurst,40.7598868,-73.85146,2021,21,Queens College,East River,"Worlds Fair Marina, Flushing Bay",8517251,40.761,-73.8504,Harmonic,0.15261887535266686
TRUE,Flushing Creek,Flushing Creek,Queens,Flushing,40.760543,-73.836458,2022,20,Queens College,East River,"Worlds Fair Marina, Flushing Bay",8517251,40.761,-73.8504,Harmonic,1.175346353388481
TRUE,"Flushing Meadows-Corona Park, Meadow Lake",Lake,Queens,Flushing Meadows-Corona Park,40.7375594,-73.83879,2022,24,Queens College,East River,"Worlds Fair Marina, Flushing Bay",8517251,40.761,-73.8504,Harmonic,2.7839204309493635
FALSE,"Flushing Meadows-Corona Park, Willow Lake",Lake,Queens,Flushing Meadows-Corona Park,40.728539,-73.83408,2014,24,NA,East River,"Worlds Fair Marina, Flushing Bay",8517251,40.761,-73.8504,Harmonic,3.862476599141995
FALSE,"Gowanus Canal, 2nd Avenue Salt Lot",Gowanus Canal,Brooklyn,Gowanus,40.675486,-73.990887,2021,39,Interstate Environmental Commission,New York Harbor,Gowanus Bay,8517921,40.665,-74.0133,Subordinate,2.2209621667926664
TRUE,"Gowanus Canal, 2nd Street Sponge Park",Gowanus Canal,Brooklyn,Gowanus,40.6768139,-73.989916,2023,39,Billion Oyster Project's Williamsburg Field Station,New York Harbor,Gowanus Bay,8517921,40.665,-74.0133,Subordinate,2.369606116560711
FALSE,"Gowanus Canal, Bond Street",Gowanus Canal,Brooklyn,Gowanus,40.6761467,-73.992577,2018,39,NA,New York Harbor,Gowanus Bay,8517921,40.665,-74.0133,Subordinate,2.142622010143816
FALSE,"Gowanus Canal, Carroll Street",Gowanus Canal,Brooklyn,Gowanus,40.6783319,-73.989314,2019,39,NA,New York Harbor,Gowanus Bay,8517921,40.665,-74.0133,Subordinate,2.507934685312534
FALSE,"Gowanus Canal, Denton's Pond Outfall",Gowanus Canal,Brooklyn,Gowanus,40.676586,-73.98961,2013,39,NA,New York Harbor,Gowanus Bay,8517921,40.665,-74.0133,Subordinate,2.3773025636808383
TRUE,"Gowanus Canal, Lowlands Nursery",Gowanus Canal,Brooklyn,Gowanus,40.674423,-73.996425,2023,39,NA,New York Harbor,Gowanus Bay,8517921,40.665,-74.0133,Subordinate,1.7673202668676233
TRUE,"Gravesend Bay, Calvert Vaux Cove",Gravesend Bay,Brooklyn,Gravesend,40.5853425,-73.9983789,2023,47,NA,New York Harbor,"Norton Point, Gravesend Bay",8517811,40.59,-73.9983,Subordinate,0.5179332249379418
TRUE,"Hackensack River, Bayonne City Park",Hackensack River,New Jersey,Bayonne,40.662968,-74.133458,2022,N/A,Interstate Environmental Commission,Kill Van Kull,Port Elizabeth,8530882,40.6733,-74.14,Subordinate,1.2744924035644185
TRUE,"Hackensack River, Laurel Hill Park",Hackensack River,New Jersey,Secaucus,40.763925,-74.08723,2022,N/A,Interstate Environmental Commission,Hackensack River,Amtrak RR. swing bridge,8530696,40.7517,-74.0967,Subordinate,1.576094716197474
TRUE,"Hackensack River, Ridgefield Park",Hackensack River,New Jersey,Ridgefield Park,40.859316,-74.032318,2022,N/A,Interstate Environmental Commission,Hackensack River,Ridgefield Park,8530398,40.85,-74.03,Subordinate,1.0540775115044136
TRUE,"Hackensack River, River Barge Park",Hackensack River,New Jersey,Carlstadt,40.807001,-74.0571,2022,N/A,Interstate Environmental Commission,Hackensack River,"Carlstadt, Garretts Reach",8530528,40.8067,-74.06,Subordinate,0.24636352997910888
TRUE,"Hackensack River, Rutkowski Park",Hackensack River,New Jersey,Bayonne,40.688829,-74.112276,2022,N/A,Interstate Environmental Commission,Kill Van Kull,Port Newark Terminal,8530884,40.69,-74.1333,Subordinate,1.7773952391341976
FALSE,"Harlem River, High Bridge",Harlem River,Bronx,Highbridge,40.842404,73.929444,2018,16,NA,Hudson River,Troy,TEC1603,42.7167,-73.7,Subordinate,10171.96728608866
FALSE,"Harlem River, Lincoln Avenue 1",Harlem River,Bronx,Mott Haven,40.806018,-73.930089,2018,8,NA,East River,"Harlem River, Randalls Island",8518643,40.8,-73.9283,Harmonic,0.6859040741240255
TRUE,"Harlem River, Lincoln Avenue 2",Harlem River,Bronx,Mott Haven,40.806394,-73.9303903,2023,8,NA,East River,"Harlem River, Randalls Island",8518643,40.8,-73.9283,Harmonic,0.732426186226314
TRUE,"Harlem River, Little Hell Gate",Harlem River,Manhattan,Randalls Island,40.7910125,-73.927415,2022,8,NA,East River,"Hell Gate, Wards Island",8517401,40.7867,-73.9217,Subordinate,0.6792925113708171
FALSE,"Harlem River, Muscota Marsh",Harlem River,Manhattan,Inwood,40.874568,-73.917539,2019,10,NA,Hudson River,"Spuyten Duyvil Creek ent., N.Y.",8518903,40.8783,-73.925,Subordinate,0.7521379132104034
FALSE,"Harlem River, North Cove",Harlem River,Manhattan,Inwood,40.864361,73.915912,2019,10,NA,Hudson River,Troy,TEC1603,42.7167,-73.7,Subordinate,10169.274889979617
FALSE,"Harlem River, North Cove Spring",Harlem River,Manhattan,Inwood,40.864388,-73.915755,2013,10,NA,Hudson River,"Dyckman Street, Ferry Slip",8518902,40.8683,-73.9333,Harmonic,1.538146731909937
FALSE,"Harlem River, Swindlers Cove/Peter J. Sharpe Boathouse",Harlem River,Manhattan,Fort George,40.856102,-73.922073,2019,10,NA,Hudson River,"Dyckman Street, Ferry Slip",8518902,40.8683,-73.9333,Harmonic,1.6526017802920274
TRUE,"Harlem River, Water's Edge Garden",Harlem River,Manhattan,Randalls Island,40.78917,-73.93277,2022,8,NA,East River,"Hell Gate, Wards Island",8517401,40.7867,-73.9217,Subordinate,0.9716028047487284
FALSE,"Hudson River, Beczak Beach #1",Hudson River,Yonkers,Northwest Yonkers,40.9566318,-73.89769,2011,N/A,NA,Hudson River,"Alpine, N.J.",8530095,40.945,-73.9183,Subordinate,2.1607445669302785
FALSE,"Hudson River, Beczak Beach #2",Hudson River,Yonkers,Northwest Yonkers,40.9566318,-73.89769,2011,N/A,NA,Hudson River,"Alpine, N.J.",8530095,40.945,-73.9183,Subordinate,2.1607445669302785
TRUE,"Hudson River, Frank Sinatra Park",Hudson River,New Jersey,Hoboken,40.7413476,-74.025702,2022,N/A,Hudson River Park's River Project,Hudson River,"Weehawken, Union City, N.J.",8530645,40.765,-74.0183,Subordinate,2.7029220917131958
TRUE,"Hudson River, Gansevoort Peninsula, North",Hudson River,Manhattan,Meatpacking,40.740726,-74.009682,2023,3,NA,Hudson River,"Weehawken, Union City, N.J.",8530645,40.765,-74.0183,Subordinate,2.7950593026867256
TRUE,"Hudson River, Gansevoort Peninsula, South",Hudson River,Manhattan,Meatpacking,40.7391216,-74.010559,2023,3,Hudson River Park's River Project,Hudson River,"Weehawken, Union City, N.J.",8530645,40.765,-74.0183,Subordinate,2.950501573455713
TRUE,"Hudson River, Gansevoort Peninsula South – Middle",Hudson River,Manhattan,Meatpacking,40.739174,-74.010909,2023,3,NA,Hudson River,"Weehawken, Union City, N.J.",8530645,40.765,-74.0183,Subordinate,2.938431775803265
TRUE,"Hudson River, Gansevoort Peninsula South – Ramp",Hudson River,Manhattan,Meatpacking,40.739183,-74.011194,2023,3,NA,Hudson River,"Weehawken, Union City, N.J.",8530645,40.765,-74.0183,Subordinate,2.9324594510280764
TRUE,"Hudson River, Hoboken Cove Beach",Hudson River,New Jersey,Hoboken,40.748265,-74.023647,2022,N/A,Hudson River Park's River Project,Hudson River,"Weehawken, Union City, N.J.",8530645,40.765,-74.0183,Subordinate,1.914572321635409
FALSE,"Hudson River, Inwood Canoe Club",Hudson River,Manhattan,Inwood,40.8674926,-73.932915,2019,10,NA,Hudson River,"Dyckman Street, Ferry Slip",8518902,40.8683,-73.9333,Harmonic,0.09543738474560753
TRUE,"Hudson River, JFK Marina",Hudson River,Yonkers,Northwest Yonkers,40.9566318,-73.89769,2022,N/A,Sarah Lawrence Center for the Urban River at Beczak,Hudson River,"Alpine, N.J.",8530095,40.945,-73.9183,Subordinate,2.1607445669302785
TRUE,"Hudson River, Pier 13",Hudson River,New Jersey,Hoboken,40.751744,-74.022864,2022,N/A,Hudson River Park's River Project,Hudson River,"Weehawken, Union City, N.J.",8530645,40.765,-74.0183,Subordinate,1.5233015673529848
TRUE,"Hudson River, Pier 26",Hudson River,Manhattan,Tribeca,40.7215745,-74.013557,2022,1,Hudson River Park's River Project,New York Harbor,NEW YORK (The Battery),8518750,40.7006,-74.0142,Harmonic,2.332887602950549
TRUE,"Hudson River, Pier 40",Hudson River,Manhattan,West Village,40.728249,-74.013786,2022,3,Hudson River Park's River Project,New York Harbor,NEW YORK (The Battery),8518750,40.7006,-74.0142,Harmonic,3.0746265273542135
TRUE,"Hudson River, Pier 66",Hudson River,Manhattan,Hudson Yards,40.752502,-74.00898,2022,3,Hudson River Park's River Project,Hudson River,"Weehawken, Union City, N.J.",8530645,40.765,-74.0183,Subordinate,1.5960931623493928
TRUE,"Hudson River, Pier 84",Hudson River,Manhattan,Hell's Kitchen,40.764275,-74.002129,2023,3,Hudson River Park's River Project,Hudson River,"Weehawken, Union City, N.J.",8530645,40.765,-74.0183,Subordinate,1.3642867215891286
TRUE,"Hudson River, Pier 96",Hudson River,Manhattan,Hell's Kitchen,40.771322,-73.995991,2023,3,Hudson River Park's River Project,Hudson River,"Weehawken, Union City, N.J.",8530645,40.765,-74.0183,Subordinate,2.005948885619446
TRUE,"Hudson River, Pier 99 Boat Ramp",Hudson River,Manhattan,Upper West Side,40.7735219,-73.993778,2019,3,NA,Hudson River,"Weehawken, Union City, N.J.",8530645,40.765,-74.0183,Subordinate,2.272101977663229
FALSE,"Hudson River, Pier I/70th Street",Hudson River,Manhattan,Upper West Side,40.7799272,-73.989316,2017,6,NA,Hudson River,"Weehawken, Union City, N.J.",8530645,40.765,-74.0183,Subordinate,2.9516272689956726
TRUE,"Hudson River, Weehawken Cove",Hudson River,New Jersey,Hoboken,40.7553196,-74.026094,2022,N/A,Hudson River Park's River Project,Hudson River,"Weehawken, Union City, N.J.",8530645,40.765,-74.0183,Subordinate,1.260786487596868
FALSE,"Hudson River, West 100th Street",Hudson River,Manhattan,Bloomingdale,40.799369,-73.975795,2016,6,NA,Hudson River,"Edgewater, N.J.",8530505,40.8133,-73.9783,Subordinate,1.563338681553457
FALSE,"Hudson River, West 129th Street (St. Clair Place)",Hudson River,Manhattan,Morningside Heights,40.818007,-73.962128,2013,7,NA,Hudson River,"Edgewater, N.J.",8530505,40.8133,-73.9783,Subordinate,1.4581159971630933
FALSE,"Hudson River, West 133rd Street/Piers Park Kayak Dock",Hudson River,Manhattan,West Harlem,40.8206007,-73.959577,2019,7,NA,Hudson River,"Edgewater, N.J.",8530505,40.8133,-73.9783,Subordinate,1.772426694021716
FALSE,"Hudson River, West 145th Street",Hudson River,Manhattan,Hamilton Heights,40.8283762,-73.954165,2020,7,NA,Hudson River,"Edgewater, N.J.",8530505,40.8133,-73.9783,Subordinate,2.633413917702329
FALSE,"Hudson River, West 154th Street",Hudson River,Manhattan,Hamilton Heights,40.832214,-73.951485,2015,7,NA,Hudson River,"Edgewater, N.J.",8530505,40.8133,-73.9783,Subordinate,3.0845300810432335
TRUE,"Hudson River, West 170th St. (Riverside Park)",Hudson River,Manhattan,Washington Heights,40.846403,-73.9463675,2022,10,NA,Hudson River,"Dyckman Street, Ferry Slip",8518902,40.8683,-73.9333,Harmonic,2.6713682706787156
FALSE,"Hudson River, West 172nd Street",Hudson River,Manhattan,Washington Heights,40.8461433,-73.9464,2020,10,NA,Hudson River,"Dyckman Street, Ferry Slip",8518902,40.8683,-73.9333,Harmonic,2.6988303665748212
FALSE,"Hudson River, West 72nd Street Kayak Launch",Hudson River,Manhattan,Upper West Side,40.781422,-73.98835,2018,6,NA,Hudson River,"Weehawken, Union City, N.J.",8530645,40.765,-74.0183,Subordinate,3.113689480594116
FALSE,"Hudson River, West 79th Street Boat Basin",Hudson River,Manhattan,Upper West Side,40.7859195,-73.985227,2011,6,NA,Hudson River,"Edgewater, N.J.",8530505,40.8133,-73.9783,Subordinate,3.0999034475406884
TRUE,"Hudson River, Yonkers Paddling and Rowing Club",Hudson River,Yonkers,Getty Square,40.9379388,-73.903492,2022,N/A,Sarah Lawrence Center for the Urban River at Beczak,Hudson River,"Alpine, N.J.",8530095,40.945,-73.9183,Subordinate,1.4708844043727252
FALSE,"Hutchinson River, Amtrak Bridge",Hutchinson River,Bronx,Baychester,40.8634849,-73.820186,2018,12,NA,"Long Island Sound, north side",New Rochelle,8518490,40.8933,-73.7817,Subordinate,4.632584103843466
FALSE,"Jamaica Bay, Canarsie Pier",Jamaica Bay,Brooklyn,Canarsie,40.6278942,-73.8837,2018,46,NA,Jamaica Bay,Canarsie,8517381,40.63,-73.885,Subordinate,0.25858075558896026
FALSE,"Jamaica Bay, Gerritsen Creek Kayak Launch (Marine Park Salt Marsh)",Jamaica Bay,Brooklyn,Gerritsen Beach,40.602409,-73.931716,2021,46,Interstate Environmental Commission,Jamaica Bay,Mill Basin,8517519,40.6083,-73.9217,Subordinate,1.0696034883168
TRUE,"Jamaica Bay, Paerdegat Basin (Sebago Canoe Club)",Jamaica Bay,Brooklyn,Canarsie,40.6264122,-73.904386,2022,46,Interstate Environmental Commission,Jamaica Bay,Canarsie,8517381,40.63,-73.885,Subordinate,1.6839527162844306
FALSE,"Jamaica Bay, Plumb Beach",Jamaica Bay,Brooklyn,Gerritsen Beach,40.5824832,-73.920157,2018,46,NA,Jamaica Bay,Plumb Beach Channel,8517531,40.585,-73.925,Subordinate,0.49556396777233386
TRUE,Kissena Lake,Lake,Queens,Flushing,40.74727,-73.80655,2022,20,NA,East River,"Worlds Fair Marina, Flushing Bay",8517251,40.761,-73.8504,Harmonic,3.996668800537753
TRUE,Little Neck Bay,Little Neck Bay,Queens,Bay Terrace,40.7801708,-73.768804,2022,19,Queens College,"Long Island, Long Island Sound",Willets Point,8516990,40.7933,-73.7817,Harmonic,1.8193701811191143
TRUE,"Newtown Creek, 2nd Street Kayak Launch",Newtown Creek,Queens,Hunters Point,40.7385105,-73.959961,2022,26,Billion Oyster Project's Williamsburg Field Station,East River,"Hunters Point, Newtown Creek",8517673,40.74,-73.9617,Subordinate,0.2211277788898207
TRUE,"Newtown Creek, Apollo Street",Newtown Creek,Brooklyn,Greenpoint,40.7292914,-73.93728,2022,33,Billion Oyster Project's Williamsburg Field Station,East River,"Hunters Point, Newtown Creek",8517673,40.74,-73.9617,Subordinate,2.377264370592475
TRUE,"Newtown Creek, Dutch Kills (head)",Newtown Creek,Queens,Hunters Point,40.7429327,-73.939319,2022,26,Billion Oyster Project's Williamsburg Field Station,East River,"Hunters Point, Newtown Creek",8517673,40.74,-73.9617,Subordinate,1.9135501182096344
FALSE,"Newtown Creek, Dutch Kills (mouth)",Newtown Creek,Queens,Hunters Point,40.7378927,-73.945885,2020,26,NA,East River,"Hunters Point, Newtown Creek",8517673,40.74,-73.9617,Subordinate,1.3528825153206827
TRUE,"Newtown Creek, East Branch",Newtown Creek,Queens,Maspeth,40.7167533,-73.922925,2022,34,Billion Oyster Project's Williamsburg Field Station,East River,Williamsburg Bridge,8518699,40.7117,-73.9683,Harmonic,3.865385935618061
TRUE,"Newtown Creek, English Kills",Newtown Creek,Brooklyn,East Williamsburg,40.7120691,-73.931294,2022,34,Billion Oyster Project's Williamsburg Field Station,East River,Williamsburg Bridge,8518699,40.7117,-73.9683,Harmonic,3.119344742970455
FALSE,"Newtown Creek, North Brooklyn Community Boathouse/Pulaski Bridge",Newtown Creek,Brooklyn,Greenpoint,40.739025,-73.952972,2021,26,Billion Oyster Project's Williamsburg Field Station,East River,"Hunters Point, Newtown Creek",8517673,40.74,-73.9617,Subordinate,0.7432889611725778
FALSE,"Newtown Creek, North Henry Street",Newtown Creek,Brooklyn,Greenpoint,40.7355189,-73.945091,2016,33,NA,East River,"Hunters Point, Newtown Creek",8517673,40.74,-73.9617,Subordinate,1.4854212704584187
TRUE,"Newtown Creek, Pulaski Bridge, Queens",Newtown Creek,Queens,Long Island City,40.739534,-73.952244,2023,26,NA,East River,"Hunters Point, Newtown Creek",8517673,40.74,-73.9617,Subordinate,0.7983546096792111
FALSE,"Newtown Creek, Turning Basin",Newtown Creek,Queens,Maspeth,40.7248845,-73.9258,2020,34,NA,East River,"Hunters Point, Newtown Creek",8517673,40.74,-73.9617,Subordinate,3.4605087211557874
FALSE,"Newtown Creek, Whale Creek",Newtown Creek,Brooklyn,Greenpoint,40.736974,-73.94684,2012,33,NA,East River,"Hunters Point, Newtown Creek",8517673,40.74,-73.9617,Subordinate,1.2964106096498365
TRUE,Prospect Park Lake,Lake,Brooklyn,Prospect Lefferts Gardens,40.655305,-73.96421,2021,39,Billion Oyster Project's Williamsburg Field Station,New York Harbor,Gowanus Bay,8517921,40.665,-74.0133,Subordinate,4.278825291494938
TRUE,"Rahway River, Riverfront Park",Rahway River,New Jersey,Rahway,40.599456000000004,-74.268318,2023,N/A,Interstate Environmental Commission,Arthur Kill,"Rahway River, RR. Bridge",8531077,40.5983,-74.2317,Subordinate,3.0942751119569487
TRUE,"Rahway River, Rahway Valley Sewerage Authority",Rahway River,New Jersey,Rahway,40.601792,-74.256497,2023,N/A,Interstate Environmental Commission,Arthur Kill,"Rahway River, RR. Bridge",8531077,40.5983,-74.2317,Subordinate,2.1292420349052668
TRUE,"Rahway River, Carteret Waterfront Park",Rahway River,New Jersey,Carteret,40.571734,-74.212477,2023,N/A,Interstate Environmental Commission,Arthur Kill,Carteret,8531095,40.5867,-74.21,Subordinate,1.677239903116512
TRUE,"Raritan Bay, Great Kills Beach",Lower Bay,Staten Island,Great Kills,40.5422,-74.1254,2022,51,Monsignor Farrell High School,"Lower New York Bay, Raritan Bay, etc.",Great Kills Harbor,8519436,40.5433,-74.14,Harmonic,1.2397395588078177
TRUE,"Raritan Bay, Midlland Beach",Lower Bay,Staten Island,Great Kills,40.572109,-74.08794,2023,50,Monsignor Farrell High School,New York Harbor,"Fort Wadsworth, The Narrows",8519024,40.6067,-74.055,Subordinate,4.746676141964024
TRUE,"Raritan Bay, New Dorp Beach",Lower Bay,Staten Island,Great Kills,40.5665366,-74.0914556,2023,50,Monsignor Farrell High School,"Lower New York Bay, Raritan Bay, etc.",Great Kills Harbor,8519436,40.5433,-74.14,Harmonic,4.847271240359919
TRUE,"Raritan Bay, Oakwood Beach",Lower Bay,Staten Island,Great Kills,40.549642,-74.111618000000007,2022,50,Monsignor Farrell High School,"Lower New York Bay, Raritan Bay, etc.",Great Kills Harbor,8519436,40.5433,-74.14,Harmonic,2.499664620901329
FALSE,"Raritan Bay, South Beach",Lower Bay,Staten Island,South Beach,40.579248,-74.074953,2012,50,NA,New York Harbor,"Fort Wadsworth, The Narrows",8519024,40.6067,-74.055,Subordinate,3.486586330822635
TRUE,"Raritan Bay, Waterfront Park",Raritan Bay,New Jersey,South Amboy,40.48334,-74.2698,2022,N/A,Interstate Environmental Commission,Raritan River,South Amboy,8531232,40.4917,-74.2817,Subordinate,1.3700072634133205
TRUE,"Raritan River, 2nd Street Park",Raritan River,New Jersey,Perth Amboy,40.50007,-74.27719,2022,N/A,Interstate Environmental Commission,Raritan River,South Amboy,8531232,40.4917,-74.2817,Subordinate,1.0058030684805972
TRUE,"Raritan River, Edison Boat Basin",Raritan River,New Jersey,Edison,40.48769,-74.38409,2022,N/A,Interstate Environmental Commission,Raritan River,Sayreville,8531390,40.4783,-74.3567,Harmonic,2.5409380490568916
TRUE,"Raritan River, Ken Buchanan Park",Raritan River,New Jersey,Sayreville,40.47483,-74.35586,2022,N/A,Interstate Environmental Commission,Raritan River,Sayreville,8531390,40.4783,-74.3567,Harmonic,0.3923333807027777
TRUE,"Raritan River, Riverside Park",Raritan River,New Jersey,Piscataway,40.54067,-74.51219,2022,N/A,Interstate Environmental Commission,Raritan River,New Brunswick,8531463,40.4883,-74.435,Harmonic,8.745830930160745
TRUE,"Raritan River, Rutgers Boathouse",Raritan River,New Jersey,New Brunswick,40.48826,-74.43384,2022,N/A,Interstate Environmental Commission,Raritan River,New Brunswick,8531463,40.4883,-74.435,Harmonic,0.0981997241148684
TRUE,"Saw Mill River, daylighted section",Saw Mill River,Yonkers,Getty Square,40.9356552,-73.901795,2022,N/A,Sarah Lawrence Center for the Urban River at Beczak,Hudson River,"Alpine, N.J.",8530095,40.945,-73.9183,Subordinate,1.7325373267502497
FALSE,Sheepshead Bay,Sheepshead Bay,Brooklyn,Sheepshead Bay,40.583419,-73.945179,2021,46,Interstate Environmental Commission,Jamaica Bay,"Kingsborough, Sheepshead Bay",8517756,40.5812,-73.9338,Harmonic,0.9921224610777766
TRUE,"Upper Harbor, 69th Street Pier",New York Bay,Brooklyn,Bay Ridge,40.639326,-74.038539,2023,43,NA,New York Harbor,"St. George, Staten Island",8519112,40.6433,-74.0733,Subordinate,2.966057904173247
TRUE,"Upper Harbor, Bush Terminal Park (Inner Lagoon)",Bay Ridge Channel,Brooklyn,Sunset Park,40.6546621,-74.018347,2022,38,Billion Oyster Project's Williamsburg Field Station,New York Harbor,Gowanus Bay,8517921,40.665,-74.0133,Subordinate,1.2258222414573603
TRUE,"Upper Harbor, Bush Terminal Park (North Embayment)",Bay Ridge Channel,Brooklyn,Sunset Park,40.6548329,-74.018245,2022,38,Billion Oyster Project's Williamsburg Field Station,New York Harbor,Gowanus Bay,8517921,40.665,-74.0133,Subordinate,1.2050249324918085
FALSE,"Upper Harbor, North Shore Esplanade",Upper Bay,Staten Island,St George,40.645481,-74.074752,2023,49,NA,New York Harbor,"St. George, Staten Island",8519112,40.6433,-74.0733,Subordinate,0.27170199730477423
FALSE,Van Cortlandt Park Lake,Lake,Bronx,Van Cortlandt Park,40.8898985,-73.891811,2019,11,NA,Hudson River,"Riverdale, N.Y.",8518905,40.9033,-73.9167,Subordinate,2.568444845599393
FALSE,"Kill Van Kull, Brady’s Dock, Bayonne NJ",NA,New Jersey,Bayonne,40.64512,-74.12563,2024,N/A,NA,Kill Van Kull,"Bayonne Bridge, Bergen Point",8519483,40.6391,-74.1463,Harmonic,1.8680615778346423
